{"type":"FeatureCollection","features":[{"type":"Feature","geometry":{"type":"Point","coordinates":[7.735003072261634,46.64506525]},"properties":{"name":"Aeschiallmend","county":"Bern","status":"Closed","snow":"0cm","marker-color":"#cc3333"}},{"type":"Feature","geometry":{"type":"Point","coordinates":[7.3989488,46.2970711]},"properties":{"name":"Anzère","county":"Valais","status":"Closed","snow":"0cm","marker-color":"#cc3333"}},{"type":"Feature","geometry":{"type":"Point","coordinates":[8.0366206,46.7198508]},"properties":{"name":"Axalp","county":"Bern","status":"Closed","snow":"0cm","marker-color":"#cc3333"}},{"type":"Feature","geometry":{"type":"Point","coordinates":[7.5395614,47.2661477]},"properties":{"name":"Balmberg","county":"Solothurn","status":"Closed","snow":"0cm","marker-color":"#cc3333"}},{"type":"Feature","geometry":{"type":"Point","coordinates":[7.7702739539385846,46.7010066]},"properties":{"name":"Beatenberg-Hohwald","county":"Bern","status":"Closed","snow":"0cm","marker-color":"#cc3333"}},{"type":"Feature","geometry":{"type":"Point","coordinates":[7.979559529198946,46.38257755]},"properties":{"name":"Blatten-Belalp","county":"Valais","status":"Closed","snow":"33cm","marker-color":"#cc3333"}},{"type":"Feature","geometry":{"type":"Point","coordinates":[7.0151652616539035,47.123034149999995]},"properties":{"name":"Bugnenets-Savagnières","county":"Neuchâtel","status":"Closed","snow":"0cm","marker-color":"#cc3333"}},{"type":"Feature","geometry":{"type":"Point","coordinates":[7.886087023859159,46.806586749999994]},"properties":{"name":"Bumbach Schangnau","county":"Bern","status":"Closed","snow":"0cm","marker-color":"#cc3333"}},{"type":"Feature","geometry":{"type":"Point","coordinates":[7.17930555186935,46.596174899999994]},"properties":{"name":"Charmey","county":"Fribourg","status":"Closed","snow":"20cm","marker-color":"#cc3333"}},{"type":"Feature","geometry":{"type":"Point","coordinates":[7.0041371,47.0863653]},"properties":{"name":"Crêt-du-Puy","county":"Neuchâtel","status":"Closed","snow":"0cm","marker-color":"#cc3333"}},{"type":"Feature","geometry":{"type":"Point","coordinates":[8.263659490169449,46.30548033204925]},"properties":{"name":"Devero","county":"Italy","status":"Closed","snow":null,"marker-color":"#cc3333"}},{"type":"Feature","geometry":{"type":"Point","coordinates":[7.7812181,46.2936189]},"properties":{"name":"Eischoll","county":"Valais","status":"Closed","snow":"0cm","marker-color":"#cc3333"}},{"type":"Feature","geometry":{"type":"Point","coordinates":[7.798843,46.78758]},"properties":{"name":"Eriz","county":"Bern","status":"Closed","snow":"0cm","marker-color":"#cc3333"}},{"type":"Feature","geometry":{"type":"Point","coordinates":[7.4810866,46.025975]},"properties":{"name":"Espace Dent-Blanche (Arolla)","county":"Valais","status":"Closed","snow":"140cm","marker-color":"#cc3333"}},{"type":"Feature","geometry":{"type":"Point","coordinates":[7.4958022,46.1129048]},"properties":{"name":"Espace Dent-Blanche (Evolène)","county":"Valais","status":"Closed","snow":"200cm","marker-color":"#cc3333"}},{"type":"Feature","geometry":{"type":"Point","coordinates":[6.6147146,46.3218031]},"properties":{"name":"Espace Dent-Blanche (La Forclaz)","county":"Valais","status":"Closed","snow":"50cm","marker-color":"#cc3333"}},{"type":"Feature","geometry":{"type":"Point","coordinates":[7.7067758,46.6300064]},"properties":{"name":"Faltschen","county":"Bern","status":"Closed","snow":"0cm","marker-color":"#cc3333"}},{"type":"Feature","geometry":{"type":"Point","coordinates":[7.4510429140673065,46.7238324]},"properties":{"name":"Gantrisch Gurnigel","county":"Bern","status":"Closed","snow":"0cm","marker-color":"#cc3333"}},{"type":"Feature","geometry":{"type":"Point","coordinates":[7.2054783,46.3542396]},"properties":{"name":"Glacier 3000","county":"Vaud","status":"Closed","snow":"168cm","marker-color":"#cc3333"}},{"type":"Feature","geometry":{"type":"Point","coordinates":[7.3836338,47.2296201]},"properties":{"name":"Grenchenberg","county":"Solothurn","status":"Closed","snow":null,"marker-color":"#cc3333"}},{"type":"Feature","geometry":{"type":"Point","coordinates":[7.596104279634074,46.16065785]},"properties":{"name":"Grimentz-Zinal","county":"Valais","status":"Closed","snow":null,"marker-color":"#cc3333"}},{"type":"Feature","geometry":{"type":"Point","coordinates":[7.4851984,46.57316]},"properties":{"name":"Grimmialp","county":"Bern","status":"Closed","snow":null,"marker-color":"#cc3333"}},{"type":"Feature","geometry":{"type":"Point","coordinates":[7.9027064,46.225128]},"properties":{"name":"Gspon","county":"Valais","status":"Closed","snow":"0cm","marker-color":"#cc3333"}},{"type":"Feature","geometry":{"type":"Point","coordinates":[7.4435782,46.7613942]},"properties":{"name":"Gurnigelbad","county":"Bern","status":"Closed","snow":null,"marker-color":"#cc3333"}},{"type":"Feature","geometry":{"type":"Point","coordinates":[7.8646663,46.7276046]},"properties":{"name":"Habkern","county":"Bern","status":"Closed","snow":"0cm","marker-color":"#cc3333"}},{"type":"Feature","geometry":{"type":"Point","coordinates":[7.6972569,46.8287284]},"properties":{"name":"Heimenschwand","county":"Bern","status":"Closed","snow":null,"marker-color":"#cc3333"}},{"type":"Feature","geometry":{"type":"Point","coordinates":[6.5060807,46.2467581]},"properties":{"name":"Hirmentaz","county":"France","status":"Closed","snow":null,"marker-color":"#cc3333"}},{"type":"Feature","geometry":{"type":"Point","coordinates":[7.682735,46.775266]},"properties":{"name":"Homberg","county":"Bern","status":"Closed","snow":"0cm","marker-color":"#cc3333"}},{"type":"Feature","geometry":{"type":"Point","coordinates":[7.2761312,46.6113953]},"properties":{"name":"Jaun","county":"Fribourg","status":"Closed","snow":"10cm","marker-color":"#cc3333"}},{"type":"Feature","geometry":{"type":"Point","coordinates":[7.3390803,46.5921588]},"properties":{"name":"Jaunpass","county":"Bern","status":"Closed","snow":"0cm","marker-color":"#cc3333"}},{"type":"Feature","geometry":{"type":"Point","coordinates":[7.7233899,46.3271175]},"properties":{"name":"Jeizinen","county":"Valais","status":"Closed","snow":"0cm","marker-color":"#cc3333"}},{"type":"Feature","geometry":{"type":"Point","coordinates":[26.075664802450667,44.9312226]},"properties":{"name":"Jura-sur-Léman (Transfrontalier)","county":"France","status":"Closed","snow":"5cm","marker-color":"#cc3333"}},{"type":"Feature","geometry":{"type":"Point","coordinates":[7.7269442870754,46.58364720653741]},"properties":{"name":"Kiental","county":"Bern","status":"Closed","snow":"0cm","marker-color":"#cc3333"}},{"type":"Feature","geometry":{"type":"Point","coordinates":[7.1839627,46.6760352]},"properties":{"name":"La Berra","county":"Fribourg","status":"Closed","snow":"0cm","marker-color":"#cc3333"}},{"type":"Feature","geometry":{"type":"Point","coordinates":[7.106108,46.4203898]},"properties":{"name":"La Lécherette","county":"Vaud","status":"Closed","snow":"0cm","marker-color":"#cc3333"}},{"type":"Feature","geometry":{"type":"Point","coordinates":[7.776432098805419,46.4131389]},"properties":{"name":"Lauchernalp","county":"Valais","status":"Closed","snow":"233cm","marker-color":"#cc3333"}},{"type":"Feature","geometry":{"type":"Point","coordinates":[6.4271457,45.9418675]},"properties":{"name":"Le Grand-Bornand","county":"France","status":"Closed","snow":"0cm","marker-color":"#cc3333"}},{"type":"Feature","geometry":{"type":"Point","coordinates":[7.1566435,46.3511021]},"properties":{"name":"Les Diablerets","county":"Vaud","status":"Closed","snow":"94cm","marker-color":"#cc3333"}},{"type":"Feature","geometry":{"type":"Point","coordinates":[6.473611,46.2490275]},"properties":{"name":"Les Habères","county":"France","status":"Open","snow":null,"marker-color":"#00cc66"}},{"type":"Feature","geometry":{"type":"Point","coordinates":[7.0090229,46.1129171]},"properties":{"name":"Les Marécottes","county":"Valais","status":"Closed","snow":"0cm","marker-color":"#cc3333"}},{"type":"Feature","geometry":{"type":"Point","coordinates":[7.1018391,46.3960939]},"properties":{"name":"Les Mosses","county":"Vaud","status":"Closed","snow":null,"marker-color":"#cc3333"}},{"type":"Feature","geometry":{"type":"Point","coordinates":[6.9465972,46.5220308]},"properties":{"name":"Les Paccots","county":"Fribourg","status":"Closed","snow":"15cm","marker-color":"#cc3333"}},{"type":"Feature","geometry":{"type":"Point","coordinates":[6.9092392,46.4820859]},"properties":{"name":"Les Pléiades","county":"Vaud","status":"Closed","snow":"0cm","marker-color":"#cc3333"}},{"type":"Feature","geometry":{"type":"Point","coordinates":[-60.9610429,45.5328082]},"properties":{"name":"Les Rochers - de - Naye","county":"Vaud","status":"Closed","snow":"0cm","marker-color":"#cc3333"}},{"type":"Feature","geometry":{"type":"Point","coordinates":[7.6267416,46.3793158]},"properties":{"name":"Leukerbad (Torrent & Gemmi)","county":"Valais","status":"Closed","snow":"215cm","marker-color":"#cc3333"}},{"type":"Feature","geometry":{"type":"Point","coordinates":[7.0148403,46.3438701]},"properties":{"name":"Leysin","county":"Vaud","status":"Closed","snow":"0cm","marker-color":"#cc3333"}},{"type":"Feature","geometry":{"type":"Point","coordinates":[7.6771267,46.8484982]},"properties":{"name":"Linden","county":"Bern","status":"Closed","snow":null,"marker-color":"#cc3333"}},{"type":"Feature","geometry":{"type":"Point","coordinates":[7.9058214,46.8345927]},"properties":{"name":"Marbachegg","county":"Luzern","status":"Closed","snow":"0cm","marker-color":"#cc3333"}},{"type":"Feature","geometry":{"type":"Point","coordinates":[6.451604687248988,46.1805475]},"properties":{"name":"Massif des Brasses","county":"France","status":"Closed","snow":null,"marker-color":"#cc3333"}},{"type":"Feature","geometry":{"type":"Point","coordinates":[7.281119494859288,46.253037449999994]},"properties":{"name":"Mayens de Conthey","county":"Valais","status":"Closed","snow":null,"marker-color":"#cc3333"}},{"type":"Feature","geometry":{"type":"Point","coordinates":[8.219472172523004,46.7468975]},"properties":{"name":"Meiringen-Hasliberg","county":"Bern","status":"Closed","snow":"0cm","marker-color":"#cc3333"}},{"type":"Feature","geometry":{"type":"Point","coordinates":[8.2695375,46.7741051]},"properties":{"name":"Melchsee-Frutt","county":"Obwalden","status":"Closed","snow":"0cm","marker-color":"#cc3333"}},{"type":"Feature","geometry":{"type":"Point","coordinates":[7.0171352,46.5489446]},"properties":{"name":"Moléson","county":"Fribourg","status":"Closed","snow":"10cm","marker-color":"#cc3333"}},{"type":"Feature","geometry":{"type":"Point","coordinates":[5.5961553,46.6928311]},"properties":{"name":"Monts Jura","county":"France","status":"Closed","snow":"20cm","marker-color":"#cc3333"}},{"type":"Feature","geometry":{"type":"Point","coordinates":[7.8301577,46.2515854]},"properties":{"name":"Moosalp","county":"Valais","status":"Closed","snow":null,"marker-color":"#cc3333"}},{"type":"Feature","geometry":{"type":"Point","coordinates":[6.3505343,46.7722619]},"properties":{"name":"Métabief","county":"France","status":"Closed","snow":"0cm","marker-color":"#cc3333"}},{"type":"Feature","geometry":{"type":"Point","coordinates":[8.1095816,46.825086]},"properties":{"name":"Mörlialp Giswil","county":"Obwalden","status":"Closed","snow":null,"marker-color":"#cc3333"}},{"type":"Feature","geometry":{"type":"Point","coordinates":[7.4346135,46.2287612]},"properties":{"name":"Nax - Mt-Noble","county":"Valais","status":"Closed","snow":null,"marker-color":"#cc3333"}},{"type":"Feature","geometry":{"type":"Point","coordinates":[7.7770938,46.7117062]},"properties":{"name":"Niederhorn","county":"Bern","status":"Closed","snow":null,"marker-color":"#cc3333"}},{"type":"Feature","geometry":{"type":"Point","coordinates":[7.3631289938304425,46.735242549999995]},"properties":{"name":"Ottenleue","county":"Bern","status":"Closed","snow":"0cm","marker-color":"#cc3333"}},{"type":"Feature","geometry":{"type":"Point","coordinates":[7.1723377,46.1989846]},"properties":{"name":"Ovronnaz","county":"Valais","status":"Closed","snow":"0cm","marker-color":"#cc3333"}},{"type":"Feature","geometry":{"type":"Point","coordinates":[6.569485399496548,46.15746735]},"properties":{"name":"Praz de Lys – Sommand","county":"France","status":"Closed","snow":"0cm","marker-color":"#cc3333"}},{"type":"Feature","geometry":{"type":"Point","coordinates":[7.176948,47.153439]},"properties":{"name":"Prés-d'Orvin","county":"Bern","status":"Closed","snow":"0cm","marker-color":"#cc3333"}},{"type":"Feature","geometry":{"type":"Point","coordinates":[6.974740561418216,46.54190605]},"properties":{"name":"Rathvel","county":"Fribourg","status":"Closed","snow":"0cm","marker-color":"#cc3333"}},{"type":"Feature","geometry":{"type":"Point","coordinates":[7.3533298,46.7653088]},"properties":{"name":"Riffenmatt","county":"Bern","status":"Closed","snow":"0cm","marker-color":"#cc3333"}},{"type":"Feature","geometry":{"type":"Point","coordinates":[6.5479361,46.8752631]},"properties":{"name":"Robella Val-de-Travers","county":"Neuchâtel","status":"Closed","snow":"0cm","marker-color":"#cc3333"}},{"type":"Feature","geometry":{"type":"Point","coordinates":[7.4456496,46.6401196]},"properties":{"name":"Rossberg","county":"Bern","status":"Closed","snow":"0cm","marker-color":"#cc3333"}},{"type":"Feature","geometry":{"type":"Point","coordinates":[8.0426994,46.3045036]},"properties":{"name":"Rosswald","county":"Valais","status":"Closed","snow":"70cm","marker-color":"#cc3333"}},{"type":"Feature","geometry":{"type":"Point","coordinates":[7.4036704,46.7712929]},"properties":{"name":"Rüschegg","county":"Bern","status":"Closed","snow":"0cm","marker-color":"#cc3333"}},{"type":"Feature","geometry":{"type":"Point","coordinates":[7.9513161,46.1009456]},"properties":{"name":"Saas-Fee / Saas-Almagell","county":"Valais","status":"Open","snow":"175cm","marker-color":"#00cc66"}},{"type":"Feature","geometry":{"type":"Point","coordinates":[6.158111,46.4460968]},"properties":{"name":"Saint-Cergue","county":"Vaud","status":"Closed","snow":"0cm","marker-color":"#cc3333"}},{"type":"Feature","geometry":{"type":"Point","coordinates":[13.750775070075347,42.02385117169189]},"properties":{"name":"San Domenico","county":"Italy","status":"Closed","snow":null,"marker-color":"#cc3333"}},{"type":"Feature","geometry":{"type":"Point","coordinates":[7.4019812,47.0364334]},"properties":{"name":"Schwanden","county":"Bern","status":"Closed","snow":"0cm","marker-color":"#cc3333"}},{"type":"Feature","geometry":{"type":"Point","coordinates":[7.280643975442837,46.66513645]},"properties":{"name":"Schwarzsee","county":"Fribourg","status":"Closed","snow":"0cm","marker-color":"#cc3333"}},{"type":"Feature","geometry":{"type":"Point","coordinates":[7.389737503359043,46.743126649999994]},"properties":{"name":"Selital","county":"Bern","status":"Closed","snow":null,"marker-color":"#cc3333"}},{"type":"Feature","geometry":{"type":"Point","coordinates":[7.5751463,46.6191588]},"properties":{"name":"Springenboden","county":"Bern","status":"Closed","snow":"0cm","marker-color":"#cc3333"}},{"type":"Feature","geometry":{"type":"Point","coordinates":[7.627631245237188,46.236536]},"properties":{"name":"St-Luc / Chandolin","county":"Valais","status":"Closed","snow":"80cm","marker-color":"#cc3333"}},{"type":"Feature","geometry":{"type":"Point","coordinates":[6.538928337155845,46.8344744]},"properties":{"name":"Ste-Croix/Les Rasses","county":"Vaud","status":"Closed","snow":"0cm","marker-color":"#cc3333"}},{"type":"Feature","geometry":{"type":"Point","coordinates":[8.0349311,46.8221657]},"properties":{"name":"Sörenberg","county":"Luzern","status":"Closed","snow":"160cm","marker-color":"#cc3333"}},{"type":"Feature","geometry":{"type":"Point","coordinates":[6.6989377,46.3910383]},"properties":{"name":"Thollon Les Mémises","county":"France","status":"Closed","snow":"77cm","marker-color":"#cc3333"}},{"type":"Feature","geometry":{"type":"Point","coordinates":[7.1030216,47.223677]},"properties":{"name":"Tramelan","county":"Bern","status":"Closed","snow":"0cm","marker-color":"#cc3333"}},{"type":"Feature","geometry":{"type":"Point","coordinates":[7.779865291421668,46.260928899999996]},"properties":{"name":"Unterbäch","county":"Valais","status":"Closed","snow":"130cm","marker-color":"#cc3333"}},{"type":"Feature","geometry":{"type":"Point","coordinates":[6.2458972500000005,46.61011775]},"properties":{"name":"Vallée de Joux","county":"Vaud","status":"Closed","snow":null,"marker-color":"#cc3333"}},{"type":"Feature","geometry":{"type":"Point","coordinates":[7.530704,46.2571655]},"properties":{"name":"Vercorin","county":"Valais","status":"Closed","snow":"150cm","marker-color":"#cc3333"}},{"type":"Feature","geometry":{"type":"Point","coordinates":[7.1096087000666675,46.3289335]},"properties":{"name":"Villars-Gryon","county":"Vaud","status":"Closed","snow":"0cm","marker-color":"#cc3333"}},{"type":"Feature","geometry":{"type":"Point","coordinates":[7.9030118,46.2589888]},"properties":{"name":"Visperterminen","county":"Valais","status":"Closed","snow":"30cm","marker-color":"#cc3333"}},{"type":"Feature","geometry":{"type":"Point","coordinates":[7.7401817,46.7238301]},"properties":{"name":"Wilerallmi","county":"Bern","status":"Closed","snow":null,"marker-color":"#cc3333"}},{"type":"Feature","geometry":{"type":"Point","coordinates":[7.529654,46.5802462]},"properties":{"name":"Wiriehorn","county":"Bern","status":"Closed","snow":null,"marker-color":"#cc3333"}}]}